aaran
No messages received.aaran
aaran
*6F
No messages received.$GPGGA,210436.000,3635.7222,N,12152.5813,W,1,04,6.7,11.2,M,-27.5,M,,*5A
No messages received.$GPGGA,210439.000,3635.7222,N,12152.5813,W,1,04,6.7,11.2,M,-27.5,M,,*55
No messages received.$GPGGA,210442.000,3635.7222,N,12152.5813,W,1,04,6.7,11.2,M,-27.5,M,,*59
No messages received.2,207,25*7B
No messages received.$GPGGA,210447.000,3635.7222,N,12152.5813,W,1,04,6.7,11.2,M,-27.5,M,,*5C
No messages received.207,23*7D
No messages received.$GPGGA,210452.000,3635.7222,N,12152.5813,W,1,04,6.7,11.2,M,-27.5,M,,*58
No messages received.,23*7D
No messages received.$GPGGA,210457.000,3635.7222,N,12152.5813,W,1,04,6.8,11.2,M,-27.5,M,,*52
No messages received.
No messages received.$GPGGA,210502.000,3635.7222,N,12152.5813,W,1,05,2.0,11.2,M,-27.5,M,,*5E
No messages received.13,12,207,21*7F
No messages received.$GPGGA,210507.000,3635.7222,N,12152.5813,W,1,05,2.0,11.2,M,-27.5,M,,*5B
No messages received.,12,207,20*7F
No messages received.$GPGGA,210512.000,3635.7222,N,12152.5813,W,1,05,2.0,11.2,M,-27.5,M,,*5F
No messages received.12,207,20*7F
No messages received.$GPGGA,210517.000,3635.7222,N,12152.5813,W,1,05,2.0,11.2,M,-27.5,M,,*5A
No messages received.,,13,12,207,21*7E
No messages received.$GPGGA,210522.000,3635.7222,N,12152.5813,W,1,05,2.0,11.2,M,-27.5,M,,*5C
No messages received.3,12,207,21*7E
No messages received.$GPGGA,210527.000,3635.7222,N,12152.5813,W,1,05,2.0,11.2,M,-27.5,M,,*59
No messages received.,207,20*78
No messages received.$GPGGA,210532.000,3635.7222,N,12152.5813,W,1,05,2.0,11.2,M,-27.5,M,,*5D
No messages received.3,12,207,20*7A
No messages received.$GPGGA,210537.000,3635.7222,N,12152.5813,W,1,05,2.0,11.2,M,-27.5,M,,*58
No messages received.207,20*7A
No messages received.$GPGGA,210542.000,3635.7222,N,12152.5813,W,1,04,6.9,11.2,M,-27.5,M,,*56
No messages received.207,19*7B
No messages received.$GPGGA,210547.000,3635.7222,N,12152.5813,W,1,04,7.0,11.2,M,-27.5,M,,*5B
No messages received.207,20*71
No messages received.$GPGGA,210552.000,3635.7222,N,12152.5813,W,1,04,7.0,11.2,M,-27.5,M,,*5F
No messages received.,20*70
No messages received.$GPGGA,210557.000,3635.7222,N,12152.5813,W,1,04,7.0,11.2,M,-27.5,M,,*5A
No messages received.,207,19*76
No messages received.$GPGGA,210602.000,3635.7222,N,12152.5813,W,1,04,7.0,11.2,M,-27.5,M,,*59
No messages received.2,207,19*74
No messages received.$GPGGA,210607.000,3635.7222,N,12152.5813,W,1,04,7.0,11.2,M,-27.5,M,,*5C
No messages received.07,19*73
No messages received.$GPGGA,210612.000,3635.7222,N,12152.5813,W,1,04,7.1,11.2,M,-27.5,M,,*59
No messages received.13,12,207,19*73
No messages received.$GPGGA,210617.000,3635.7222,N,12152.5813,W,1,05,2.0,11.2,M,-27.5,M,,*59
No messages received.*78
No messages received.$GPGGA,210622.000,3635.7222,N,12152.5813,W,1,04,7.1,11.2,M,-27.5,M,,*5A
No messages received.,12,207,20*78
No messages received.$GPGGA,210627.000,3635.7222,N,12152.5813,W,1,05,2.0,11.2,M,-27.5,M,,*5A
No messages received.,207,19*72
No messages received.$GPGGA,210632.000,3635.7222,N,12152.5813,W,1,04,2.6,11.2,M,-27.5,M,,*59
No messages received.12,207,16*7A
No messages received.$GPGGA,210637.000,3635.7222,N,12152.5813,W,1,05,2.0,11.2,M,-27.5,M,,*5B
No messages received.,207,17*7B
No messages received.$GPGGA,210642.000,3635.7222,N,12152.5813,W,1,05,2.0,11.2,M,-27.5,M,,*59
No messages received.13,12,207,16*7A
No messages received.$GPGGA,210647.000,3635.7112,N,12152.5623,W,1,05,2.0,-1.2,M,-27.5,M,,*4D
No messages received.,13,12,207,16*72
No messages received.$GPGGA,210652.000,3635.7112,N,12152.5623,W,1,04,7.2,-1.2,M,-27.5,M,,*4F
No messages received.07,16*72
No messages received.$GPGGA,210657.000,3635.7163,N,12152.5690,W,1,04,7.2,1.0,M,-27.5,M,,*6B
No messages received.,13,12,207,16*72
No messages received.$GPGGA,210702.000,3635.7221,N,12152.5758,W,1,05,2.0,4.0,M,-27.5,M,,*69
No messages received.13,12,207,16*78
No messages received.$GPGGA,210707.000,3635.7221,N,12152.5758,W,1,04,7.3,4.0,M,-27.5,M,,*6B
No messages received.,17*73
No messages received.$GPGGA,210712.000,3635.7245,N,12152.5793,W,1,04,7.3,5.7,M,-27.5,M,,*6C
No messages received.,12,207,17*72
No messages received.$GPGGA,210717.000,3635.7243,N,12152.5786,W,1,04,7.3,6.3,M,-27.5,M,,*6C
No messages received.2,207,16*74
No messages received.$GPGGA,210722.000,3635.7243,N,12152.5786,W,1,04,7.3,6.3,M,-27.5,M,,*6A
No messages received.7,18*72
No messages received.$GPGGA,210727.000,3635.7243,N,12152.5786,W,1,03,7.0,6.3,M,-27.5,M,,*6B
No messages received.207,18*74
No messages received.$GPGGA,210732.000,3635.7243,N,12152.5786,W,1,04,7.4,6.3,M,-27.5,M,,*6C
No messages received.,,13,12,207,19*71
No messages received.$GPGGA,210737.000,3635.7243,N,12152.5786,W,1,04,7.4,6.3,M,-27.5,M,,*69
No messages received.2,207,19*77
No messages received.$GPGGA,210742.000,3635.7243,N,12152.5786,W,1,04,7.4,6.3,M,-27.5,M,,*6B
No messages received.1,206,19*77
No messages received.$GPGGA,210747.000,3635.7243,N,12152.5786,W,1,04,7.4,6.3,M,-27.5,M,,*6E
No messages received.,206,19*74
No messages received.$GPGGA,210752.000,3635.7232,N,12152.5844,W,1,04,7.4,23.6,M,-27.5,M,,*5F
No messages received.206,19*74
No messages received.$GPGGA,210757.000,3635.7245,N,12152.5857,W,1,04,7.4,24.8,M,-27.5,M,,*51
No messages received.11,206,18*7F
No messages received.$GPGGA,210802.000,3635.7423,N,12152.6029,W,1,04,7.5,19.9,M,-27.5,M,,*54
No messages received.1,206,17*70
No messages received.$GPGGA,210807.000,3635.7612,N,12152.6196,W,1,04,7.5,12.1,M,-27.5,M,,*57
No messages received.11,206,17*72
No messages received.$GPGGA,210812.000,3635.7599,N,12152.6144,W,1,04,7.5,7.1,M,-27.5,M,,*68
No messages received.,13,11,206,18*7F
No messages received.$GPGGA,210817.000,3635.7587,N,12152.6118,W,1,04,7.5,5.4,M,-27.5,M,,*6C
No messages received.13,11,206,18*79
No messages received.$GPGGA,210822.000,3635.7587,N,12152.6118,W,1,04,7.5,5.4,M,-27.5,M,,*6A
No messages received.,13,11,206,18*71
No messages received.$GPGGA,210827.000,3635.7587,N,12152.6118,W,1,04,7.6,5.4,M,-27.5,M,,*6C
No messages received.206,19*72
No messages received.$GPGGA,210832.000,3635.7421,N,12152.6032,W,1,04,7.6,31.6,M,-27.5,M,,*59
No messages received.206,19*73
No messages received.$GPGGA,210837.000,3635.7420,N,12152.6037,W,1,04,7.6,32.6,M,-27.5,M,,*5B
No messages received.206,19*73
No messages received.$GPGGA,210842.000,3635.7420,N,12152.6037,W,1,04,7.6,32.6,M,-27.5,M,,*59
No messages received.19*7B
No messages received.$GPGGA,210847.000,3635.7420,N,12152.6037,W,1,04,7.6,32.6,M,-27.5,M,,*5C
No messages received.20*79
No messages received.$GPGGA,210852.000,3635.7420,N,12152.6037,W,1,04,7.6,32.6,M,-27.5,M,,*58
No messages received.,11,206,19*7C
No messages received.$GPGGA,210857.000,3635.7420,N,12152.6037,W,1,04,7.7,32.6,M,-27.5,M,,*5C
No messages received.6,19*7E
No messages received.$GPGGA,210902.000,3635.7241,N,12152.5816,W,1,04,7.7,34.1,M,-27.5,M,,*55
No messages received.06,20*76
No messages received.$GPGGA,210907.000,3635.7293,N,12152.5805,W,1,05,2.0,25.9,M,-27.5,M,,*56
No messages received.206,20*71
No messages received.$GPGGA,210912.000,3635.7293,N,12152.5805,W,1,04,7.7,25.9,M,-27.5,M,,*51
No messages received.06,20*70
No messages received.$GPGGA,210917.000,3635.7293,N,12152.5805,W,1,04,7.7,25.9,M,-27.5,M,,*54
No messages received.1,206,19*78
No messages received.$GPGGA,210922.000,3635.7293,N,12152.5805,W,1,04,7.7,25.9,M,-27.5,M,,*52
No messages received.11,206,19*78
No messages received.$GPGGA,210927.000,3635.7293,N,12152.5805,W,1,05,2.0,25.9,M,-27.5,M,,*54
No messages received.1,206,19*78
No messages received.$GPGGA,210932.000,3635.7293,N,12152.5805,W,1,05,2.0,25.9,M,-27.5,M,,*50
No messages received.,11,206,18*7C
No messages received.$GPGGA,210937.000,3635.7293,N,12152.5805,W,1,04,7.8,25.9,M,-27.5,M,,*59
No messages received.3,11,206,*79
No messages received.$GPGGA,210942.000,3635.7293,N,12152.5805,W,1,04,2.6,25.9,M,-27.5,M,,*50
No messages received.6,13,11,206,*78
No messages received.$GPGGA,210947.000,3635.7121,N,12152.5632,W,1,04,2.6,22.2,M,-27.5,M,,*59
No messages received.6,13,11,206,15*7E
No messages received.$GPGGA,210952.000,3635.7121,N,12152.5632,W,1,04,2.6,22.2,M,-27.5,M,,*5D
No messages received.11,206,15*71
No messages received.$GPGGA,210957.000,3635.7121,N,12152.5632,W,1,04,2.6,22.2,M,-27.5,M,,*58
No messages received.,13,11,206,14*7E
No messages received.$GPGGA,211002.000,3635.7121,N,12152.5632,W,1,04,2.6,22.2,M,-27.5,M,,*50
No messages received.13,11,206,14*7D
No messages received.$GPGGA,211007.000,3635.7121,N,12152.5632,W,1,04,2.6,22.2,M,-27.5,M,,*55
No messages received.,11,206,12*7B
No messages received.$GPGGA,211012.000,3635.7121,N,12152.5632,W,1,04,2.6,22.2,M,-27.5,M,,*51
No messages received.206,12*70
No messages received.$GPGGA,211017.000,3635.7121,N,12152.5632,W,1,03,50.0,22.2,M,-27.5,M,,*62
No messages received.3,11,206,13*71
No messages received.$GPGGA,211022.000,3635.7121,N,12152.5632,W,1,04,2.6,22.2,M,-27.5,M,,*52
No messages received.,11,206,14*75
No messages received.$GPGGA,211027.000,3635.7121,N,12152.5632,W,1,04,2.6,22.2,M,-27.5,M,,*57
No messages received.1,206,13*78
No messages received.$GPGGA,211032.000,3635.7121,N,12152.5632,W,1,04,2.6,22.2,M,-27.5,M,,*53
No messages received.,11,206,12*78
No messages received.$GPGGA,211037.000,3635.7121,N,12152.5632,W,1,03,50.0,22.2,M,-27.5,M,,*60
No messages received.1,206,13*74
No messages received.$GPGGA,211042.000,3635.7121,N,12152.5632,W,1,03,50.0,22.2,M,-27.5,M,,*62
No messages received.205,13*75
No messages received.$GPGGA,211047.000,3635.7121,N,12152.5632,W,1,03,50.0,22.2,M,-27.5,M,,*67
No messages received.13,10,205,14*72
No messages received.$GPGGA,211052.000,3635.7121,N,12152.5632,W,1,04,2.6,22.2,M,-27.5,M,,*55
No messages received.,205,13*70
No messages received.$GPGGA,211057.000,3635.7121,N,12152.5632,W,1,03,50.0,22.2,M,-27.5,M,,*66
No messages received.0,205,13*70
No messages received.$GPGGA,211102.000,3635.7121,N,12152.5632,W,1,03,50.0,22.2,M,-27.5,M,,*67
No messages received.10,205,13*70
No messages received.$GPGGA,211107.000,3635.7121,N,12152.5632,W,1,03,50.0,22.2,M,-27.5,M,,*62
No messages received.,10,205,13*71
No messages received.$GPGGA,211112.000,3635.7121,N,12152.5632,W,1,03,50.0,22.2,M,-27.5,M,,*66
No messages received.5,12*73
No messages received.$GPGGA,211117.000,3635.7121,N,12152.5632,W,1,03,50.0,22.2,M,-27.5,M,,*63
No messages received.205,14*75
No messages received.$GPGGA,211122.000,3635.7121,N,12152.5632,W,1,03,50.0,22.2,M,-27.5,M,,*65
No messages received.,205,15*77
No messages received.$GPGGA,211127.000,3635.7204,N,12152.5733,W,1,03,50.0,8.1,M,-27.5,M,,*5F
No messages received.,205,14*76
No messages received.$GPGGA,211132.000,3635.7235,N,12152.5769,W,1,03,50.0,6.7,M,-27.5,M,,*5E
No messages received.05,14*76
No messages received.$GPGGA,211137.000,3635.7246,N,12152.5783,W,1,03,50.0,5.9,M,-27.5,M,,*56
No messages received.*76
No messages received.$GPGGA,211142.000,3635.7246,N,12152.5783,W,1,03,50.0,5.9,M,-27.5,M,,*54
No messages received.205,14*76
No messages received.$GPGGA,211147.000,3635.7246,N,12152.5783,W,1,03,50.0,5.9,M,-27.5,M,,*51
No messages received.,205,13*71
No messages received.$GPGGA,211152.000,3635.7246,N,12152.5783,W,1,03,50.0,5.9,M,-27.5,M,,*55
No messages received.5,*75
No messages received.$GPGGA,211157.000,3635.7246,N,12152.5783,W,1,03,50.0,5.9,M,-27.5,M,,*50
No messages received.10,205,*76
No messages received.$GPGGA,211202.000,3635.7246,N,12152.5783,W,1,03,50.0,5.9,M,-27.5,M,,*53
No messages received.10,205,*77
No messages received.$GPGGA,211207.000,3635.7096,N,12152.5612,W,1,03,50.0,0.5,M,-27.5,M,,*59
No messages received.0,205,*77
No messages received.$GPGGA,211212.000,3635.7039,N,12152.5548,W,1,03,50.0,0.2,M,-27.5,M,,*53
No messages received.205,*70
No messages received.$GPGGA,211217.000,3635.6980,N,12152.5482,W,1,03,50.0,-0.4,M,-27.5,M,,*70
No messages received.,205,13*77
No messages received.$GPGGA,211222.000,3635.6939,N,12152.5436,W,1,03,50.0,-0.2,M,-27.5,M,,*7D
No messages received.10,205,13*76
No messages received.$GPGGA,211227.000,3635.6882,N,12152.5371,W,1,03,50.0,0.4,M,-27.5,M,,*56
No messages received.05,14*76
No messages received.$GPGGA,211232.000,3635.6609,N,12152.5059,W,1,03,50.0,2.8,M,-27.5,M,,*58No messages received.$GPGGA,220309.000,,,,,0,00,,,M,0.0,M,,*5CNo messages received.$GPGGA,220311.000,,,,,0,00,,,M,0.0,M,,*55No messages received.$GPGGA,220313.000,,,,,0,00,,,M,0.0,M,,*57No messages received.$GPGGA,220315.000,,,,,0,00,,,M,0.0,M,,*51No messages received.$GPGGA,220317.000,,,,,0,00,,,M,0.0,M,,*53No messages received.$GPGGA,220319.000,,,,,0,00,,,M,0.0,M,,*5DNo messages received.$GPGGA,220321.000,,,,,0,00,,,M,0.0,M,,*56No messages received.$GPGGA,220323.000,,,,,0,00,,,M,0.0,M,,*54No messages received.$GPGGA,220325.000,,,,,0,00,,,M,0.0,M,,*52No messages received.$GPGGA,220327.000,,,,,0,00,,,M,0.0,M,,*50No messages received.$GPGGA,220329.000,,,,,0,00,,,M,0.0,M,,*5ENo messages received.$GPGGA,220331.000,,,,,0,00,,,M,0.0,M,,*57No messages received.$GPGGA,220333.000,,,,,0,00,,,M,0.0,M,,*55No messages received.$GPGGA,220335.000,,,,,0,00,,,M,0.0,M,,*53No messages received.$GPGGA,220337.000,,,,,0,00,,,M,0.0,M,,*51No messages received.$GPGGA,220339.000,,,,,0,00,,,M,0.0,M,,*5FNo messages received.$GPGGA,220341.000,,,,,0,00,,,M,0.0,M,,*50No messages received.$GPGGA,220343.000,,,,,0,00,,,M,0.0,M,,*52No messages received.$GPGGA,220345.000,,,,,0,00,,,M,0.0,M,,*54No messages received.$GPGGA,220347.000,,,,,0,00,,,M,0.0,M,,*56No messages received.$GPGGA,220349.000,,,,,0,00,,,M,0.0,M,,*58No messages received.$GPGGA,220351.000,,,,,0,00,,,M,0.0,M,,*51No messages received.$GPGGA,220353.000,,,,,0,00,,,M,0.0,M,,*53No messages received.$GPGGA,220355.000,,,,,0,00,,,M,0.0,M,,*55No messages received.$GPGGA,220357.000,,,,,0,00,,,M,0.0,M,,*57No messages received.$GPGGA,220359.000,,,,,0,00,,,M,0.0,M,,*59No messages received.$GPGGA,220401.000,,,,,0,00,,,M,0.0,M,,*53No messages received.$GPGGA,220403.000,,,,,0,00,,,M,0.0,M,,*51No messages received.$GPGGA,220405.000,,,,,0,00,,,M,0.0,M,,*57No messages received.$GPGGA,220407.000,,,,,0,00,,,M,0.0,M,,*55No messages received.$GPGGA,220409.000,,,,,0,00,,,M,0.0,M,,*5BNo messages received.$GPGGA,220411.000,,,,,0,00,,,M,0.0,M,,*52No messages received.$GPGGA,220413.000,,,,,0,00,,,M,0.0,M,,*50No messages received.$GPGGA,220415.000,,,,,0,00,,,M,0.0,M,,*56No messages received.$GPGGA,220417.000,,,,,0,00,,,M,0.0,M,,*54No messages received.$GPGGA,220419.000,,,,,0,00,,,M,0.0,M,,*5ANo messages received.$GPGGA,220421.000,,,,,0,00,,,M,0.0,M,,*51No messages received.$GPGGA,220423.000,,,,,0,00,,,M,0.0,M,,*53No messages received.$GPGGA,220425.000,,,,,0,00,,,M,0.0,M,,*55No messages received.$GPGGA,220427.000,,,,,0,00,,,M,0.0,M,,*57No messages received.$GPGGA,220429.000,,,,,0,00,,,M,0.0,M,,*59No messages received.$GPGGA,220431.000,,,,,0,00,,,M,0.0,M,,*50No messages received.$GPGGA,220433.000,,,,,0,00,,,M,0.0,M,,*52No messages received.$GPGGA,220435.000,,,,,0,00,,,M,0.0,M,,*54No messages received.$GPGGA,220437.000,,,,,0,00,,,M,0.0,M,,*56No messages received.$GPGGA,220439.000,,,,,0,00,,,M,0.0,M,,*58No messages received.$GPGGA,220441.000,,,,,0,00,,,M,0.0,M,,*57No messages received.$GPGGA,220443.000,,,,,0,00,,,M,0.0,M,,*55No messages received.$GPGGA,220445.000,,,,,0,00,,,M,0.0,M,,*53No messages received.$GPGGA,220447.000,,,,,0,00,,,M,0.0,M,,*51No messages received.$GPGGA,220449.000,,,,,0,00,,,M,0.0,M,,*5FNo messages received.$GPGGA,220451.000,,,,,0,00,,,M,0.0,M,,*56No messages received.$GPGGA,220453.000,,,,,0,00,,,M,0.0,M,,*54No messages received.$GPGGA,220455.000,,,,,0,00,,,M,0.0,M,,*52No messages received.$GPGGA,220457.000,,,,,0,00,,,M,0.0,M,,*50No messages received.$GPGGA,220459.000,,,,,0,00,,,M,0.0,M,,*5ENo messages received.$GPGGA,220501.000,3635.6983,N,12152.5909,W,0,03,,9.2,M,-27.5,M,,*47No messages received.$GPGGA,220503.000,3635.7028,N,12152.5863,W,0,03,,9.2,M,-27.5,M,,*41No messages received.$GPGGA,220505.000,3635.6794,N,12152.5702,W,0,03,,9.2,M,-27.5,M,,*4ENo messages received.$GPGGA,220507.000,3635.6780,N,12152.5690,W,0,03,,9.2,M,-27.5,M,,*43No messages received.$GPGGA,220509.000,,,,,0,00,,,M,0.0,M,,*5ANo messages received.$GPGGA,220511.000,,,,,0,00,,,M,0.0,M,,*53No messages received.$GPGGA,220513.000,,,,,0,00,,,M,0.0,M,,*51No messages received.$GPGGA,220515.000,,,,,0$GPGGA,221313.000,,,,,0,00,,,M,0.0,M,,*56
No messages received.$GPGGA,221315.000,,,,,0,00,,,M,0.0,M,,*50
No messages received.$GPGGA,221317.000,,,,,0,00,,,M,0.0,M,,*52
No messages received.$GPGGA,221319.000,,,,,0,00,,,M,0.0,M,,*5C
No messages received.$GPGGA,221321.000,,,,,0,00,,,M,0.0,M,,*57
No messages received.$GPGGA,221323.000,,,,,0,00,,,M,0.0,M,,*55
No messages received.$GPGGA,221325.000,,,,,0,00,,,M,0.0,M,,*53
No messages received.$GPGGA,221327.000,,,,,0,00,,,M,0.0,M,,*51
No messages received.$GPGGA,221329.000,,,,,0,00,,,M,0.0,M,,*5F
No messages received.$GPGGA,221331.000,,,,,0,00,,,M,0.0,M,,*56
No messages received.$GPGGA,221333.000,,,,,0,00,,,M,0.0,M,,*54
No messages received.$GPGGA,221335.000,,,,,0,00,,,M,0.0,M,,*52
No messages received.$GPGGA,221337.000,,,,,0,00,,,M,0.0,M,,*50
No messages received.$GPGGA,221339.000,,,,,0,00,,,M,0.0,M,,*5E
No messages received.$GPGGA,221341.000,,,,,0,00,,,M,0.0,M,,*51
No messages received.$GPGGA,221343.000,,,,,0,00,,,M,0.0,M,,*53
No messages received.$GPGGA,221345.000,,,,,0,00,,,M,0.0,M,,*55
No messages received.$GPGGA,221347.000,,,,,0,00,,,M,0.0,M,,*57
No messages received.$GPGGA,221349.000,,,,,0,00,,,M,0.0,M,,*59
No messages received.$GPGGA,221351.000,,,,,0,00,,,M,0.0,M,,*50
No messages received.$GPGGA,221353.000,,,,,0,00,,,M,0.0,M,,*52
No messages received.$GPGGA,221355.000,,,,,0,00,,,M,0.0,M,,*54
No messages received.$GPGGA,221357.000,,,,,0,00,,,M,0.0,M,,*56
No messages received.$GPGGA,221359.000,,,,,0,00,,,M,0.0,M,,*58
No messages received.$GPGGA,221401.000,,,,,0,00,,,M,0.0,M,,*52
No messages received.$GPGGA,221403.000,,,,,0,00,,,M,0.0,M,,*50
No messages received.$GPGGA,221405.000,,,,,0,00,,,M,0.0,M,,*56
No messages received.$GPGGA,221407.000,,,,,0,00,,,M,0.0,M,,*54
No messages received.$GPGGA,221409.000,,,,,0,00,,,M,0.0,M,,*5A
No messages received.$GPGGA,221411.000,,,,,0,00,,,M,0.0,M,,*53
No messages received.$GPGGA,221413.000,,,,,0,00,,,M,0.0,M,,*51
No messages received.$GPGGA,221415.000,,,,,0,00,,,M,0.0,M,,*57
No messages received.$GPGGA,221417.000,,,,,0,00,,,M,0.0,M,,*55
No messages received.$GPGGA,221419.000,,,,,0,00,,,M,0.0,M,,*5B
No messages received.$GPGGA,221421.000,,,,,0,00,,,M,0.0,M,,*50
No messages received.$GPGGA,221423.000,,,,,0,00,,,M,0.0,M,,*52
No messages received.$GPGGA,221425.000,,,,,0,00,,,M,0.0,M,,*54
No messages received.$GPGGA,221427.000,,,,,0,00,,,M,0.0,M,,*56
No messages received.$GPGGA,221429.000,,,,,0,00,,,M,0.0,M,,*58
No messages received.$GPGGA,221431.000,,,,,0,00,,,M,0.0,M,,*51
No messages received.$GPGGA,221433.000,,,,,0,00,,,M,0.0,M,,*53
No messages received.$GPGGA,221435.000,,,,,0,00,,,M,0.0,M,,*55
No messages received.$GPGGA,221437.000,,,,,0,00,,,M,0.0,M,,*57
No messages received.$GPGGA,221439.000,,,,,0,00,,,M,0.0,M,,*59
No messages received.$GPGGA,221441.000,,,,,0,00,,,M,0.0,M,,*56
No messages received.$GPGGA,221443.000,,,,,0,00,,,M,0.0,M,,*54
No messages received.$GPGGA,221445.000,,,,,0,00,,,M,0.0,M,,*52
No messages received.$GPGGA,221447.000,,,,,0,00,,,M,0.0,M,,*50
No messages received.$GPGGA,221449.000,,,,,0,00,,,M,0.0,M,,*5E
No messages received.$GPGGA,221451.000,,,,,0,00,,,M,0.0,M,,*57
No messages received.$GPGGA,221453.000,,,,,0,00,,,M,0.0,M,,*55
No messages received.$GPGGA,221455.000,,,,,0,00,,,M,0.0,M,,*53
No messages received.$GPGGA,221457.000,,,,,0,00,,,M,0.0,M,,*51
No messages received.$GPGGA,221459.000,,,,,0,00,,,M,0.0,M,,*5F
No messages received.$GPGGA,221501.000,,,,,0,00,,,M,0.0,M,,*53
No messages received.$GPGGA,221503.000,,,,,0,00,,,M,0.0,M,,*51
No messages received.$GPGGA,221505.000,,,,,0,00,,,M,0.0,M,,*57
No messages received.$GPGGA,221507.000,,,,,0,00,,,M,0.0,M,,*55
No messages received.$GPGGA,221509.000,,,,,0,00,,,M,0.0,M,,*5B
No messages received.$GPGGA,221511.000,,,,,0,00,,,M,0.0,M,,*52
No messages received.$GPGGA,221513.000,,,,,0,00,,,M,0.0,M,,*50
No messages received.$GPGGA,221515.000,,,,,0,00,,,M,0.0,M,,*56
No messages received.$GPGGA,221517.000,,,,,0,00,,,M,0.0,M,,*54
No messages received.$GPGGA,221519.000,,,,,0,00,,,M,0.0,M,,*5A
No messages received.$GPGSA,A,3,06,17,28,13,02,,,,,,,,3.0,2.0,2.2*39
No messages received.
No messages received.$GPRMC,211543.000,A,3635.6882,N,12152.5364,W,0.00,,050715,,,A*62
No messages received.
No messages received.$GPGGA,211544.000,3635.6882,N,12152.5364,W,1,05,2.0,8.7,M,-27.5,M,,*6A
No messages received.
No messages received.$GPGSA,A,3,06,17,28,13,02,,,,,,,,3.0,2.0,2.2*39
No messages received.
No messages received.$GPGSV,3,1,09,06,54,138,31,17,50,040,23,24,47,302,20,02,29,183,36*7B
No messages received.
No messages received.$GPGSV,3,2,09,28,24,090,38,12,21,299,15,15,13,238,,13,09,205,16*7D
No messages received.
No messages received.$GPGSV,3,3,09,03,00,056,*40
No messages received.
No messages received.$GPRMC,211544.000,A,3635.6882,N,12152.5364,W,0.00,,050715,,,A*65
No messages received.
No messages received.$GPGGA,211545.000,3635.6882,N,12152.5364,W,1,05,2.0,8.7,M,-27.5,M,,*6B
No messages received.
No messages received.$GPGSA,A,3,06,17,28,13,02,,,,,,,,3.0,2.0,2.2*39
No messages received.
No messages received.$GPRMC,211545.000,A,3635.6882,N,12152.5364,W,0.00,,050715,,,A*64
No messages received.
No messages received.$GPGGA,211546.000,3635.6882,N,12152.5364,W,1,04,2.6,8.7,M,-27.5,M,,*6F
No messages received.
No messages received.$GPGSA,A,3,06,17,28,02,,,,,,,,,4.4,2.6,3.5*38
No messages received.
No messages received.$GPRMC,211546.000,A,3635.6882,N,12152.5364,W,0.00,,050715,,,A*67
No messages received.
No messages received.$GPGGA,211547.000,3635.7053,N,12152.5544,W,1,04,2.6,10.1,M,-27.5,M,,*50
No messages received.
No messages received.$GPGSA,A,3,06,17,28,02,,,,,,,,,4.4,2.6,3.5*38
No messages received.
No messages received.$GPRMC,211547.000,A,3635.7053,N,12152.5544,W,0.68,309.60,050715,,,A*7B
No messages received.
No messages received.$GPGGA,211548.000,3635.7064,N,12152.5557,W,1,04,2.6,9.3,M,-27.5,M,,*63
No messages received.
No messages received.$GPGSA,A,3,06,17,28,02,,,,,,,,,4.4,2.6,3.5*38
No messages received.
No messages received.$GPRMC,211548.000,A,3635.7064,N,12152.5557,W,1.13,313.31,050715,,,A*70
No messages received.
No messages received.$GPGGA,211549.000,3635.7070,N,12152.5563,W,1,05,2.0,9.5,M,-27.5,M,,*61
No messages received.
No messages received.$GPGSA,A,3,06,17,28,13,02,,,,,,,,3.0,2.0,2.2*39
No messages received.
No messages received.$GPGSV,3,1,09,06,54,138,31,17,50,040,23,24,47,302,20,02,29,183,36*7B
No messages received.
No messages received.$GPGSV,3,2,09,28,24,090,38,12,21,299,16,15,13,238,,13,09,205,16*7E
No messages received.
No messages received.$GPGSV,3,3,09,03,00,056,*40
No messages received.
No messages received.$GPRMC,211549.000,A,3635.7070,N,12152.5563,W,1.16,310.63,050715,,,A*72
No messages received.
No messages received.$GPGGA,211550.000,3635.7078,N,12152.5573,W,1,04,2.6,8.7,M,-27.5,M,,*64
No messages received.
No messages received.$GPGSA,A,3,06,17,28,02,,,,,,,,,4.4,2.6,3.5*38
No messages received.
No messages received.$GPRMC,211550.000,A,3635.7078,N,12152.5573,W,0.00,,050715,,,A*6C
No messages received.
No messages received.$GPGGA,211551.000,3635.7078,N,12152.5573,W,1,05,2.0,8.7,M,-27.5,M,,*62
No messages received.
No messages received.$GPGSA,A,3,06,17,28,13,02,,,,,,,,3.0,2.0,2.2*39
No messages received.
No messages received.$GPRMC,211551.000,A,3635.7078,N,12152.5573,W,0.00,,050715,,,A*6D
No messages received.
No messages received.$GPGGA,211552.000,3635.7078,N,12152.5573,W,1,04,2.6,8.7,M,-27.5,M,,*66
No messages received.
No messages received.$GPGSA,A,3,06,17,28,02,,,,,,,,,4.4,2.6,3.5*38
No messages received.
No messages received.$GPRMC,211552.000,A,3635.7078,N,12152.5573,W,0.00,,050715,,,A*6E
No messages received.
No messages received.$GPGGA,211553.000,3635.7078,N,12152.5573,W,1,04,2.6,8.7,M,-27.5,M,,*67
No messages received.
No messages received.$GPGSA,A,3,06,17,28,02,,,,,,,,,4.4,2.6,3.5*38
No messages received.
No messages received.$GPRMC,211553.000,A,3635.7078,N,12152.5573,W,0.00,,050715,,,A*6F
No messages received.
No messages received.$GPGGA,211554.000,3635.7078,N,12152.5573,W,1,05,2.0,8.7,M,-27.5,M,,*67
No messages received.
No messages received.$GPGSA,A,3,06,17,28,13,02,,,,,,,,3.0,2.0,2.2*39
No messages received.
No messages received.$GPGSV,3,1,09,06,54,138,31,17,50,040,22,24,47,302,20,02,29,183,36*7A
No messages received.
No messages received.$GPGSV,3,2,09,28,24,090,38,12,21,299,17,15,13,238,,13,09,205,15*7C
No messages received.
No messages received.$GPGSV,3,3,09,03,00,056,*40
No messages received.
No messages received.$GPGSA,A,3,06,17,28,13,02,,,,,,,,3.0,2.0,2.2*39
No messages received.
No messages received.$GPRMC,211543.000,A,3635.6882,N,12152.5364,W,0.00,,050715,,,A*62
No messages received.
No messages received.$GPGGA,211544.000,3635.6882,N,12152.5364,W,1,05,2.0,8.7,M,-27.5,M,,*6A
No messages received.
No messages received.$GPGSA,A,3,06,17,28,13,02,,,,,,,,3.0,2.0,2.2*39
No messages received.
No messages received.$GPGSV,3,1,09,06,54,138,31,17,50,040,23,24,47,302,20,02,29,183,36*7B
No messages received.
No messages received.$GPGSV,3,2,09,28,24,090,38,12,21,299,15,15,13,238,,13,09,205,16*7D
No messages received.
No messages received.$GPGSV,3,3,09,03,00,056,*40
No messages received.
No messages received.$GPRMC,211544.000,A,3635.6882,N,12152.5364,W,0.00,,050715,,,A*65
No messages received.
No messages received.$GPGGA,211545.000,3635.6882,N,12152.5364,W,1,05,2.0,8.7,M,-27.5,M,,*6B
No messages received.
No messages received.$GPGSA,A,3,06,17,28,13,02,,,,,,,,3.0,2.0,2.2*39
No messages received.
No messages received.$GPRMC,211545.000,A,3635.6882,N,12152.5364,W,0.00,,050715,,,A*64
No messages received.
No messages received.$GPGGA,211546.000,3635.6882,N,12152.5364,W,1,04,2.6,8.7,M,-27.5,M,,*6F
No messages received.
No messages received.$GPGSA,A,3,06,17,28,02,,,,,,,,,4.4,2.6,3.5*38
No messages received.
No messages received.$GPRMC,211546.000,A,3635.6882,N,12152.5364,W,0.00,,050715,,,A*67
No messages received.
No messages received.$GPGGA,211547.000,3635.7053,N,12152.5544,W,1,04,2.6,10.1,M,-27.5,M,,*50
No messages received.
No messages received.$GPGSA,A,3,06,17,28,02,,,,,,,,,4.4,2.6,3.5*38
No messages received.
No messages received.$GPRMC,211547.000,A,3635.7053,N,12152.5544,W,0.68,309.60,050715,,,A*7B
No messages received.
No messages received.$GPGGA,211548.000,3635.7064,N,12152.5557,W,1,04,2.6,9.3,M,-27.5,M,,*63
No messages received.
No messages received.$GPGSA,A,3,06,17,28,02,,,,,,,,,4.4,2.6,3.5*38
No messages received.
No messages received.$GPRMC,211548.000,A,3635.7064,N,12152.5557,W,1.13,313.31,050715,,,A*70
No messages received.
No messages received.$GPGGA,211549.000,3635.7070,N,12152.5563,W,1,05,2.0,9.5,M,-27.5,M,,*61
No messages received.
No messages received.$GPGSA,A,3,06,17,28,13,02,,,,,,,,3.0,2.0,2.2*39
No messages received.
No messages received.$GPGSV,3,1,09,06,54,138,31,17,50,040,23,24,47,302,20,02,29,183,36*7B
No messages received.
No messages received.$GPGSV,3,2,09,28,24,090,38,12,21,299,16,15,13,238,,13,09,205,16*7E
No messages received.
No messages received.$GPGSV,3,3,09,03,00,056,*40
No messages received.
No messages received.$GPRMC,211549.000,A,3635.7070,N,12152.5563,W,1.16,310.63,050715,,,A*72
No messages received.
No messages received.$GPGGA,211550.000,3635.7078,N,12152.5573,W,1,04,2.6,8.7,M,-27.5,M,,*64
No messages received.
No messages received.$GPGSA,A,3,06,17,28,02,,,,,,,,,4.4,2.6,3.5*38
No messages received.
No messages received.$GPRMC,211550.000,A,3635.7078,N,12152.5573,W,0.00,,050715,,,A*6C
No messages received.
No messages received.$GPGGA,211551.000,3635.7078,N,12152.5573,W,1,05,2.0,8.7,M,-27.5,M,,*62
No messages received.
No messages received.$GPGSA,A,3,06,17,28,13,02,,,,,,,,3.0,2.0,2.2*39
No messages received.
No messages received.$GPRMC,211551.000,A,3635.7078,N,12152.5573,W,0.00,,050715,,,A*6D
No messages received.
No messages received.$GPGGA,211552.000,3635.7078,N,12152.5573,W,1,04,2.6,8.7,M,-27.5,M,,*66
No messages received.
No messages received.$GPGSA,A,3,06,17,28,02,,,,,,,,,4.4,2.6,3.5*38
No messages received.
No messages received.$GPRMC,211552.000,A,3635.7078,N,12152.5573,W,0.00,,050715,,,A*6E
No messages received.
No messages received.$GPGGA,211553.000,3635.7078,N,12152.5573,W,1,04,2.6,8.7,M,-27.5,M,,*67
No messages received.
No messages received.$GPGSA,A,3,06,17,28,02,,,,,,,,,4.4,2.6,3.5*38
No messages received.
No messages received.$GPRMC,211553.000,A,3635.7078,N,12152.5573,W,0.00,,050715,,,A*6F
No messages received.
No messages received.$GPGGA,211554.000,3635.7078,N,12152.5573,W,1,05,2.0,8.7,M,-27.5,M,,*67
No messages received.
No messages received.$GPGSA,A,3,06,17,28,13,02,,,,,,,,3.0,2.0,2.2*39
No messages received.
No messages received.$GPGSV,3,1,09,06,54,138,31,17,50,040,22,24,47,302,20,02,29,183,36*7A
No messages received.
No messages received.$GPGSV,3,2,09,28,24,090,38,12,21,299,17,15,13,238,,13,09,205,15*7C
No messages received.
No messages received.$GPGSV,3,3,09,03,00,056,*40
No messages received.
No messages received.$GPGSA,A,3,06,17,28,13,02,,,,,,,,3.0,2.0,2.2*39
No messages received.
No messages received.$GPRMC,211543.000,A,3635.6882,N,12152.5364,W,0.00,,050715,,,A*62
No messages received.
No messages received.$GPGGA,211544.000,3635.6882,N,12152.5364,W,1,05,2.0,8.7,M,-27.5,M,,*6A
No messages received.
No messages received.$GPGSA,A,3,06,17,28,13,02,,,,,,,,3.0,2.0,2.2*39
No messages received.
No messages received.$GPGSV,3,1,09,06,54,138,31,17,50,040,23,24,47,302,20,02,29,183,36*7B
No messages received.
No messages received.$GPGSV,3,2,09,28,24,090,38,12,21,299,15,15,13,238,,13,09,205,16*7D
No messages received.
No messages received.$GPGSV,3,3,09,03,00,056,*40
No messages received.
No messages received.$GPRMC,211544.000,A,3635.6882,N,12152.5364,W,0.00,,050715,,,A*65
No messages received.
No messages received.$GPGGA,211545.000,3635.6882,N,12152.5364,W,1,05,2.0,8.7,M,-27.5,M,,*6B
No messages received.
No messages received.$GPGSA,A,3,06,17,28,13,02,,,,,,,,3.0,2.0,2.2*39
No messages received.
No messages received.$GPRMC,211545.000,A,3635.6882,N,12152.5364,W,0.00,,050715,,,A*64
No messages received.
No messages received.$GPGGA,211546.000,3635.6882,N,12152.5364,W,1,04,2.6,8.7,M,-27.5,M,,*6F
No messages received.
No messages received.$GPGSA,A,3,06,17,28,02,,,,,,,,,4.4,2.6,3.5*38
No messages received.
No messages received.$GPRMC,211546.000,A,3635.6882,N,12152.5364,W,0.00,,050715,,,A*67
No messages received.
No messages received.$GPGGA,211547.000,3635.7053,N,12152.5544,W,1,04,2.6,10.1,M,-27.5,M,,*50
No messages received.
No messages received.$GPGSA,A,3,06,17,28,02,,,,,,,,,4.4,2.6,3.5*38
No messages received.
No messages received.$GPRMC,211547.000,A,3635.7053,N,12152.5544,W,0.68,309.60,050715,,,A*7B
No messages received.
No messages received.$GPGGA,211548.000,3635.7064,N,12152.5557,W,1,04,2.6,9.3,M,-27.5,M,,*63
No messages received.
No messages received.$GPGSA,A,3,06,17,28,02,,,,,,,,,4.4,2.6,3.5*38
No messages received.
No messages received.$GPRMC,211548.000,A,3635.7064,N,12152.5557,W,1.13,313.31,050715,,,A*70
No messages received.
No messages received.$GPGGA,211549.000,3635.7070,N,12152.5563,W,1,05,2.0,9.5,M,-27.5,M,,*61
No messages received.
No messages received.$GPGSA,A,3,06,17,28,13,02,,,,,,,,3.0,2.0,2.2*39
No messages received.
No messages received.$GPGSV,3,1,09,06,54,138,31,17,50,040,23,24,47,302,20,02,29,183,36*7B
No messages received.
No messages received.$GPGSV,3,2,09,28,24,090,38,12,21,299,16,15,13,238,,13,09,205,16*7E
No messages received.
No messages received.$GPGSV,3,3,09,03,00,056,*40
No messages received.
No messages received.$GPRMC,211549.000,A,3635.7070,N,12152.5563,W,1.16,310.63,050715,,,A*72
No messages received.
No messages received.$GPGGA,211550.000,3635.7078,N,12152.5573,W,1,04,2.6,8.7,M,-27.5,M,,*64
No messages received.
No messages received.$GPGSA,A,3,06,17,28,02,,,,,,,,,4.4,2.6,3.5*38
No messages received.
No messages received.$GPRMC,211550.000,A,3635.7078,N,12152.5573,W,0.00,,050715,,,A*6C
No messages received.
No messages received.$GPGGA,211551.000,3635.7078,N,12152.5573,W,1,05,2.0,8.7,M,-27.5,M,,*62
No messages received.
No messages received.$GPGSA,A,3,06,17,28,13,02,,,,,,,,3.0,2.0,2.2*39
No messages received.
No messages received.$GPRMC,211551.000,A,3635.7078,N,12152.5573,W,0.00,,050715,,,A*6D
No messages received.
No messages received.$GPGGA,211552.000,3635.7078,N,12152.5573,W,1,04,2.6,8.7,M,-27.5,M,,*66
No messages received.
No messages received.$GPGSA,A,3,06,17,28,02,,,,,,,,,4.4